$GPRMC,155837.000,A,5106.5360,N,01703.6376,E,0.07,190.60,250304,,,A*69
$GPGGA,155838.000,5106.5360,N,01703.6375,E,1,9,0.92,154.4,M,42.6,M,,*58
$GPRMC,155838.000,A,5106.5360,N,01703.6375,E,0.07,190.60,250304,,,A*65
$GPGGA,155839.000,5106.5359,N,01703.6374,E,1,9,0.92,154.4,M,42.6,M,,*52
$GPRMC,155839.000,A,5106.5359,N,01703.6374,E,0.07,190.60,250304,,,A*6F
$GPGGA,155840.000,5106.5358,N,01703.6374,E,1,9,0.92,154.4,M,42.6,M,,*5D
$GPGSA,A,3,12,13,19,17,10,22,23,24,14,,,,1.21,0.92,0.78*08
$GPGSV,4,1,13,24,80,279,23,19,49,094,32,12,41,239,16,15,37,201,*7E
$GPGSV,4,2,13,17,37,058,35,22,27,061,19,13,19,163,18,10,16,300,25*7B
$GPGSV,4,3,13,23,11,264,18,14,08,064,21,32,06,325,,25,05,244,*7B
$GPGSV,4,4,13,45,,,*7A
$GPRMC,155840.000,A,5106.5358,N,01703.6374,E,0.07,190.60,250304,,,A*60
$GPGGA,155841.000,5106.5358,N,01703.6373,E,1,9,0.92,154.4,M,42.6,M,,*5B
$GPRMC,155841.000,A,5106.5358,N,01703.6373,E,0.07,190.60,250304,,,A*66
$GPGGA,155842.000,5106.5356,N,01703.6374,E,1,9,0.92,154.4,M,42.6,M,,*51
$GPRMC,155842.000,A,5106.5356,N,01703.6374,E,0.07,190.60,250304,,,A*6C
$GPGGA,155843.000,5106.5355,N,01703.6374,E,1,9,0.92,154.4,M,42.6,M,,*53
$GPGSA,A,3,12,13,19,17,10,22,23,24,14,,,,1.21,0.92,0.78*08
$GPGSV,4,1,13,24,80,279,24,19,49,094,32,12,41,239,16,15,37,201,*79
$GPGSV,4,2,13,17,37,058,35,22,27,062,19,13,19,163,20,10,16,300,24*72
$GPGSV,4,3,13,23,11,264,18,14,08,064,19,32,06,325,,25,05,244,*70
$GPGSV,4,4,13,49,,,*76
$GPRMC,155843.000,A,5106.5355,N,01703.6374,E,0.07,190.60,250304,,,A*6E
$GPGGA,155844.000,5106.5355,N,01703.6375,E,1,9,0.92,154.4,M,42.6,M,,*55
$GPRMC,155844.000,A,5106.5355,N,01703.6375,E,0.07,190.60,250304,,,A*68
$GPGGA,155845.000,5106.5354,N,01703.6375,E,1,9,0.92,154.5,M,42.6,M,,*54
$GPRMC,155845.000,A,5106.5354,N,01703.6375,E,0.07,190.60,250304,,,A*68
$GPGGA,155846.000,5106.5354,N,01703.6375,E,1,9,0.92,154.5,M,42.6,M,,*57
$GPGSA,A,3,12,13,19,17,10,22,23,24,14,,,,1.21,0.92,0.78*08
$GPGSV,4,1,13,24,81,278,24,19,49,094,32,12,41,239,16,15,37,201,*79
$GPGSV,4,2,13,17,37,058,35,22,27,062,20,13,19,163,21,10,16,300,26*7B
$GPGSV,4,3,13,23,11,264,18,14,08,064,18,32,06,325,,25,05,244,*71
$GPGSV,4,4,13,42,,,*7D
$GPRMC,155846.000,A,5106.5354,N,01703.6375,E,0.07,190.60,250304,,,A*6B
$GPGGA,155847.000,5106.5353,N,01703.6376,E,1,9,0.92,154.5,M,42.6,M,,*52
$GPRMC,155847.000,A,5106.5353,N,01703.6376,E,0.07,190.60,250304,,,A*6E
$GPGGA,155848.000,5106.5353,N,01703.6377,E,1,9,0.92,154.5,M,42.6,M,,*5C
$GPRMC,155848.000,A,5106.5353,N,01703.6377,E,0.07,190.60,250304,,,A*60
$GPGGA,155849.000,5106.5353,N,01703.6377,E,1,9,0.92,154.5,M,42.6,M,,*5D
$GPGSA,A,3,12,13,19,17,10,22,23,24,14,,,,1.21,0.92,0.78*08
$GPGSV,4,1,13,24,81,278,25,19,49,094,32,12,41,239,16,15,37,201,*78
$GPGSV,4,2,13,17,37,058,35,22,27,062,18,13,19,163,22,10,16,300,26*73
$GPGSV,4,3,13,23,11,264,17,14,08,064,18,32,06,325,,25,05,244,*7E
$GPGSV,4,4,13,50,,,*7E
$GPRMC,155849.000,A,5106.5353,N,01703.6377,E,0.07,190.60,250304,,,A*61
$GPGGA,155850.000,5106.5353,N,01703.6378,E,1,9,0.92,154.5,M,42.6,M,,*5A
$GPRMC,155850.000,A,5106.5353,N,01703.6378,E,0.08,190.60,250304,,,A*69
$GPGGA,155851.000,5106.5353,N,01703.6378,E,1,8,0.97,154.5,M,42.6,M,,*5F
$GPRMC,155851.000,A,5106.5353,N,01703.6378,E,0.08,190.60,250304,,,A*68
$GPGGA,155852.000,5106.5353,N,01703.6379,E,1,9,0.92,154.5,M,42.6,M,,*59
$GPGSA,A,3,12,13,19,17,10,22,23,24,14,,,,1.21,0.92,0.78*08
$GPGSV,4,1,13,24,81,278,25,19,49,094,33,12,41,239,16,15,37,201,*79
$GPGSV,4,2,13,17,37,058,35,22,27,062,17,13,19,163,23,10,16,300,26*7D
$GPGSV,4,3,13,23,11,264,17,14,08,064,16,32,06,325,,25,05,244,*70
$GPGSV,4,4,13,48,,,*77
$GPRMC,155852.000,A,5106.5353,N,01703.6379,E,0.08,190.60,250304,,,A*6A
$GPGGA,155853.000,5106.5353,N,01703.6379,E,1,8,0.97,154.5,M,42.6,M,,*5C
$GPRMC,155853.000,A,5106.5353,N,01703.6379,E,0.08,190.60,250304,,,A*6B
$GPGGA,155854.000,5106.5352,N,01703.6380,E,1,8,0.97,154.5,M,42.6,M,,*5C
$GPRMC,155854.000,A,5106.5352,N,01703.6380,E,0.08,190.60,250304,,,A*6B
$GPGGA,155855.000,5106.5352,N,01703.6381,E,1,8,0.97,154.5,M,42.6,M,,*5C
$GPGSA,A,3,12,13,19,17,10,22,24,14,,,,,1.26,0.97,0.81*0D
$GPGSV,4,1,13,24,81,278,25,19,49,094,33,12,41,239,17,15,37,201,*78
$GPGSV,4,2,13,17,37,058,36,22,27,062,17,13,19,163,23,10,16,300,26*7E
$GPGSV,4,3,13,23,11,264,16,14,08,064,16,32,06,325,,25,05,244,*71
$GPGSV,4,4,13,47,,,*78
$GPRMC,155855.000,A,5106.5352,N,01703.6381,E,0.08,190.60,250304,,,A*6B
$GPGGA,155856.000,5106.5352,N,01703.6382,E,1,7,1.01,154.5,M,42.6,M,,*5D
$GPRMC,155856.000,A,5106.5352,N,01703.6382,E,0.08,190.60,250304,,,A*6B
$GPGGA,155857.000,5106.5351,N,01703.6382,E,1,7,1.01,154.5,M,42.6,M,,*5F
$GPRMC,155857.000,A,5106.5351,N,01703.6382,E,0.08,190.60,250304,,,A*69
$GPGGA,155858.000,5106.5351,N,01703.6382,E,1,7,1.01,154.5,M,42.6,M,,*50
$GPGSA,A,3,12,13,19,17,10,22,24,,,,,,1.32,1.01,0.85*07
$GPGSV,4,1,13,24,81,278,25,19,49,094,33,12,41,239,17,15,37,201,*78
$GPGSV,4,2,13,17,37,058,36,37,31,174,,22,27,062,17,13,19,163,25*7D
$GPGSV,4,3,13,10,16,300,26,23,11,264,16,14,08,064,15,32,06,325,*73
$GPGSV,4,4,13,25,05,244,*4B
$GPRMC,155858.000,A,5106.5351,N,01703.6382,E,0.08,190.60,250304,,,A*66
$GPGGA,155859.000,5106.5350,N,01703.6382,E,1,8,0.97,154.5,M,42.6,M,,*51
$GPRMC,155859.000,A,5106.5350,N,01703.6382,E,0.07,190.60,250304,,,A*69
$GPGGA,155900.000,5106.5350,N,01703.6382,E,1,8,0.97,154.5,M,42.6,M,,*5C
$GPRMC,155900.000,A,5106.5350,N,01703.6382,E,0.08,190.60,250304,,,A*6B
$GPGGA,155901.000,5106.5350,N,01703.6383,E,1,8,0.97,154.5,M,42.6,M,,*5C
$GPGSA,A,3,12,13,19,17,10,22,24,14,,,,,1.26,0.97,0.81*0D
$GPGSV,4,1,13,24,81,278,25,19,49,094,33,12,41,239,17,15,37,201,*78
$GPGSV,4,2,13,17,37,058,36,37,31,174,,22,27,062,17,13,19,163,24*7C
$GPGSV,4,3,13,10,16,300,25,23,11,264,16,14,08,064,15,32,06,325,*70
$GPGSV,4,4,13,25,05,244,*4B
$GPRMC,155901.000,A,5106.5350,N,01703.6383,E,0.08,190.60,250304,,,A*6B
$GPGGA,155902.000,5106.5349,N,01703.6384,E,1,9,0.92,154.5,M,42.6,M,,*54
$GPRMC,155902.000,A,5106.5349,N,01703.6384,E,0.08,190.60,250304,,,A*67
$GPGGA,155903.000,5106.5349,N,01703.6385,E,1,9,0.92,154.5,M,42.6,M,,*54
$GPRMC,155903.000,A,5106.5349,N,01703.6385,E,0.07,190.60,250304,,,A*68

